CNO,COMPANY,CONTACT,ADDRESS,CITY,STATE,ZIP,PHONE,ONO,YTDPURCH,LAT,LONG
14021,1st Computers,Jeff W. Culbertson,5111 Parkway,Brookline,MA,02146,617/232-5053,1,1509.67,42.3396,71.1149
18232,1st Data Reductions,Dennis Johnson,360 Riverview Farm Street,New Orleans,LA,70113,504/524-3966,4,1608.35,29.9486,90.0773
12082,1st Software Systems Ltd.,Rance Sivren,23433 Chapel 121,Houston,TX,77035,713/723-1288,5,2272.06,29.7503,95.3662
12840,1st Survey,Robert Hepworth,733 Peeler 86th,Dallas,TX,75234,214/243-7247,5,754.81,32.9246,96.8909
A8872,A Beck Pertamina,Jim Ansarti,4001 Rowed Rd,Arlington,MA,02174,617/643-6920,1,3991.66,42.4143,71.1518
A8818,A. Arts Computers,Darryl Roudebush,3305 Plantation Avenue,Melrose,MA,02176,617/662-0157,1,3922.04,42.4563,71.0647
A6459,A. Bloomington Biz,Phil Putnam,6300 East Drive,Tallahassee,FL,32301,904/222-9457,3,684.47,30.4421,84.285
A6188,AZ Inc,Tom Totah,2041 Wilshire Blvd,Taunton,MA,02780,617/823-5180,1,370.73,41.898,71.1007
A5181,Abbymark Velonex,Isador Sweet,2139 Bridge Sciller,Dallas,TX,75201,214/922-4927,5,1390.17,32.7815,96.7947
A3964,Acres Tree Solutions,Russell Kmickle,621 Ferndale Ste Park,Sparta,NJ,07871,201/786-0785,2,272.48,40.9882,74.7445
A3882,Add Associates,Len Silverman,318 N Sante Fe Ave Office L,Novato,CA,94947,415/897-2810,6,5487.46,38.1075,122.5647
A1046,Add Inc,Bert Crawford,253 Mitchell St,Boulder,CO,80303,303/499-2086,5,161.7,40.0233,105.2741
A7249,Adder Incorporated,Brenda Cartwright,1237 Bering Belleview,Warren,MI,48093,313/573-5873,4,722.25,42.4925,83.0373
A3835,Adv. Software,Barbara H. Martin,600 114th Ave Se A1a,Arlington,MA,02174,617/646-7974,1,4820.51,42.4143,71.1518
A3061,Advantage Computer School,Duane Marshall,3784 Van Dyke Suite Street,San Jose,CA,95131,408/946-1317,6,4635.01,37.3317,121.8871
A0169,Aerial Inc.,Lynn Williams,903 Highland Drive,Wayne,NJ,07470,201/696-7378,2,1921.26,40.9166,74.2699
A8902,Alex County Community Corp,Rance Hayden,75 Briar Ave,Lanham,MD,20706,301/459-4484,3,1637.64,38.9513,76.9498
A2418,Alex Systems,Nancy Wright,2416 Idaho Place S.,Erie,PA,16505,814/838-3116,2,8505.03,42.1214,80.087
A0887,American Computer Company,Dick W Guyton,199 E Main,Lubbock,TX,79413,806/799-7706,5,5496.99,33.5821,101.8535
A8039,American Forum,Gui Dupuy,Second Motor Seward,Santa Barbara,CA,93105,805/682-5580,6,18.16,34.4168,119.698
A9409,American Innovations,Garret Hill,Woodland Howe Ave Zussman,Roselle,NJ,07203,201/245-7517,2,5750.2,40.6628,74.2643
A4268,Ansari Data Software,Wallace Campanelli,Black Tower Drive,Pittsburg,PA,15237,412/931-0818,2,778.47,40.4391,80.0056
A6992,Ansari Produce,Oliver Mossangan,648401 Hunting Ridge Ave,Spring Valley,NY,10016,914/357-6767,2,4403.71,41.1183,74.1521
A0516,Applied Telephone Realtors,Michael Cumming,2232 Carlton Hills Place,Newtown Square,PA,19073,215/359-2769,2,1393.32,39.9922,75.408
A4062,Aspen Planning & Inc.,Gary Erickson,148 Charleston Avenue,Tulsa,OK,74133,918/254-3104,5,5330.97,36.0504,95.7929
A8048,Aspen Technology,Mel Colby,301 Broadway Suite Place,DeWitt,IA,52742,319/659-8285,4,3560.44,41.8251,90.5425
A8040,Assoc American Chiminey Survey,Elizebeth Pitts,121 Lady Ellen 1267,Excelsior,MN,55331,612/471-9726,4,7159.05,44.8993,93.5706
A7319,Assoc Strong,Dick Nay,11430 Z St,Belleville,NJ,07109,201/751-3600,2,1321.72,40.7925,74.1507
A2695,Atec Data Service,Randy Keji,4206 S Hardy Drive,Santa Clara,CA,95051,408/246-5353,6,514.98,37.3317,121.8871
A9541,Automated Mayo Miley,Bill Hopkins,521 Whitney 415,Orange,CA,92666,714/540-6062,6,2276.69,33.7048,117.8831
A6294,Award Ammonia Greenhouses,Tony Lee,Box South Court,Boston,MA,02103,617/482-4693,1,3365.79,42.357,71.0555
A6223,Azimuth Bavis & Systems,Chuck Heitmeier,17610 Conesus Lake Avenue,San Francisco,CA,94105,415/989-1603,6,5010.54,37.7894,122.4041
A1925,Azimuth Corp,Al Reetz,232 Mt. Diablo Drive,San Diego,CA,92131,619/271-8518,6,7144.67,32.9142,117.1269
B9278,B-J Astra,Phil Wallace,226 John St.,Ronkonkoma,NY,11779,516/981-9297,2,1347.19,40.8247,73.1045
B9475,Balance Computing Systems,Jay Schulmann,1215 Dalby Essex,Stamford,CT,06901,203/324-6856,1,471.75,41.0552,73.5359
B0407,Battery Weaver,Brian Case,4691 Eubank Blvd. N. Dickens,S.San Francisco,CA,94080,415/952-7761,6,4984.43,37.6394,122.4131
B9390,Bechtel's Department Inc.,Bill Driemeir,4001 Avenue,Houston,TX,77057,713/977-6967,5,1637.25,29.7503,95.3662
B2437,Bedford Office Solutions,Harry Grimm,4640 Ottamy Way,Hauppauge,NY,11788,516/582-2861,2,8165.48,40.7928,73.1984
B1455,Bell Assoc.,Mark Nelson,34 Keith Cherry,La Plata,MD,20646,301/932-8141,3,2240.16,38.6258,76.9034
B2827,Belmar Fishing Systems,Mike Ozer,327 Poplar Ste #2025,Menlo Park,CA,94025,415/323-2469,6,3422.68,37.45,122.1557
B0777,Belmar Tronixs Computer Compuserve,Andy Rigney,2239 University Hines,Santa Monica,CA,90405,213/452-9369,6,2516.68,33.9972,118.4198
B1180,Betty's Bit-Stacking Equipment,John Springer,304 Center 1267 A,Portland,OR,97201,503/225-1647,6,1370.08,45.5228,122.6654
B5806,Betty Microtactics,Dorit Kenes,2645 A Sargent Alfred Ave.,Honolulu,HI,96814,808/526-1045,6,2982.7,21.3069,157.8583
B4048,Big Incorporated,Bert Dalgleish,49 Rose Lover,N. Hollywood,CA,91602,818/762-5886,6,1591.68,34.1671,118.3711
B2909,Big Masters,William Shapiro,1209 West 4th Street,Chester,PA,19014,215/874-6501,2,1024.49,39.8512,75.3569
B2078,Biggs Anderson,Bill English,2172 W. A Street,Atlanta,GA,30309,800/241-8702,3,1826.92,33.7947,84.4064
B6752,Blake Data Seegmiller,Dick Walsh,Oakland East Information,Delray Beach,FL,33444,305/732-1296,3,179.14,26.4611,80.0731
B2426,Blake Inc.,Bob Dot,445 Fairway 202,Daly City,CA,94015,415/992-0710,6,444.79,37.7894,122.4041
B8679,Blue P Compuclassics,Jerry Moore,1440 East Lancaster Impressa,Oceanport,NJ,07757,201/389-1121,2,4158.45,40.307,74.0583
B3772,Blue Solutions,John Miller,3305 Industrial Way 17,New York,NY,10025,212/316-2898,2,3325.99,40.7413,73.9895
B4533,Bob Lewis Walker & Jackson,Dan Tillotson,5000 Plaza,Long Beach,CA,90805,213/533-7332,6,8863.03,33.8299,118.3131
B8045,Bob Produce,Charles Flower,23433 Growth Ave.,Lansdale,PA,19446,215/362-0215,2,7711.2,40.2448,75.2934
B2113,Boehringer PCA,Brenda Roberts,3015 N. San Jacinto Blvd,Westhaven,CT,06516,203/933-0986,1,3452.82,41.3068,72.9231
B2546,BoreMax Computer Thrills,Greg Sanderson,2225 Wisconsin Ave,Columbus,GA,31904,404/327-6724,3,4502.45,32.4764,84.991
B4730,Brown Designs,Patrick Bajhu,76 Harbor Avenue,Saxtons River,VT,05154,802/869-2874,1,1885.85,43.1396,72.5059
B4328,Bulldog Inc.,Bill Kane,118 118th St. #118,San Francisco,CA,94103,415/864-7557,6,4602.93,37.7894,122.4041
B4341,Business Equipment Termi,Larry Van Lockern,355 Street,San Diego,CA,92123,619/564-2809,6,8202.88,33.7232,116.2163
B5945,Business State Computers,Bob Reetz,2 Faar W. 4U,Allentown,PA,18105,215/481-8653,2,595.46,40.6064,75.4685
C3578,C & H Manufacturing Data College,Thomas Marino,902 81st Street,Atlanta,GA,30318,404/352-7242,3,2428.38,33.7505,84.3828
C3715,C & S Computing & Systems,Parky Kmickle,1 Main West 22nd Suite,Menlo Park,CA,94025,415/325-4305,6,13685.63,37.45,122.1557
C3753,C. Computing,Ted W. Annofsky,22 Petro Lane,Crossville,TN,38555,615/484-1653,3,950.06,35.9503,85.0385
C7115,C. Electric,Harold Rapp,140 Ave. S.,Jacksonville,FL,32211,904/724-0711,3,3010.48,30.3268,81.6674
C3793,C. Graph Systems,Cindy Summerley,644 North Mayfair Drive,Martinez,CA,94553,415/229-1408,6,746.2,38.0147,122.1283
C6318,COB Companies of Design,Ralph Thomas,Suite Manida West,New York,NY,10019,212/975-9326,2,516.28,40.7413,73.9895
C6132,Calif Beauty Inc.,Paul A. Murray,76 Of Dickens,Grand Rapids,MI,49506,616/241-3767,4,2304.08,42.9678,85.6675
C5011,California Alarm,Greg Miller,1632 White Plains Mac Ave E,Southfield,MI,48037,313/356-5421,4,1982.12,42.4845,83.2609
C7949,Cameron Design Vogeltanz,John Wigal,2546 B Mereline Avenue,Huntington Bch,CA,92646,714/850-4656,6,41.03,33.7048,117.8831
C2970,Canadian Ease Systems,Wayne Lipsey,9607 Rue Bldg,Greeley,CO,80631,303/351-4090,5,12995.31,40.4266,104.7019
C3034,Canadian International,Jerry Alviston,4735 Riverview Farm Tower,San Francisco,CA,94111,415/781-4504,6,760.86,37.7894,122.4041
C8121,Carolina Systems,Rich Schwartz,210 Cornell Park Blvd.,Solana Beach,CA,92075,619/481-4894,6,590.81,32.951,117.2567
C8934,Carsonville W. B. Associates,David Reiss,4019 Street & Landing,Lafayette,CA,94549,415/283-7568,6,6582.86,37.8903,122.1167
C6552,Cascade Rumberg & Corporation,Greg Gubboney,5050 N Ohio Blvd.,San Francisco,CA,94102,415/863-8219,6,1869.31,37.7894,122.4041
C9205,Cezar Beach Services,Zarina Marshall,2546 Lang Rd 121,San Diego,CA,92115,619/265-5983,6,145.42,32.7171,117.1476
C1885,Citco Ltd,Robert Komerossky,3015 S Street,Long Island Cty,NY,11101,718/361-5381,2,1625.05,40.7413,73.9895
C9520,Citibank Communication Shields,Howard Nolan,820 Ford 116,Morton Grove,IL,60053,312/967-3998,4,1171.02,42.0406,87.7825
C8028,Citizens Reductions,Keith Fanning,1620 Lincoln Mall,Williston,ND,58801,701/572-1267,4,2179.31,48.1388,103.626
C2308,City & Corp,Louis Best,2210 Leader Archer,Ogden,UT,84404,801/627-5991,5,3073.93,41.222,111.9639
C2442,City Business Solutions Dallas,Gary Thompson,12218 Cherrywest Avenue,Dallas,TX,75234,214/247-0100,5,3941.56,32.9246,96.8909
C5575,City Computer Leasing,Vince Eng,1501 Mulberry Lane,Commack,NY,11725,516/499-0649,2,6007.83,40.8402,73.3107
C6077,City Greeley,Mary Mitchell,10 78th Avenue,Wexford,PA,15090,800/245-7632,2,1562.3,40.6264,80.0561
C0753,Clover Data Inc.,Bob Kieckheser,16900 Riverton Street,Fremont,CA,94539,415/651-8696,6,2610.37,37.5569,122.0073
C1879,Clover Office Shooters,Brian Gold Jr.,31 Convoy Ln.,Fair Lawn,NJ,07410,201/794-8336,2,786.09,40.9239,74.1107
C9945,Co,Robert Reyes,2191 Idaho Street,Kailua,HI,96734,808/254-5139,6,9829.03,21.4022,157.7394
C1740,Coleman Ltd,Adam H. Weinsaft,407 Melrose Ste Place,Eureka,CA,95501,707/444-3350,6,2490.8,40.8004,124.1611
C7892,Commercial Room,Les Rabus,2045 Fairview St.,New Orleans,LA,70118,800/245-9736,4,10974.47,29.9442,90.1276
C2620,Compu-Med Planning & Consultants,Jerry Mikelk,903 Paige,Seattle,WA,98103,206/632-5758,6,1470.4,47.6097,122.3274
C6546,Computeach,George Hedgepath,521 Third Avenue Suite 1,Hayward,CA,94541,415/881-2383,6,5943.35,37.6679,122.0784
C1977,Computer Bud,Phil Linak,1281 Ventura Blvd Ste Road,Concord,CA,94519,415/825-7484,6,613.6,37.9748,122.029
C3386,Computerized Computer International,Al Reozan,1852 California Way,Nashville,TN,37208,615/327-4382,3,3551.85,36.1604,86.7762
C1134,Computer Directions,Boris Southworth,910 Stock Rd. Gate 1 Floor 3,Longview,TX,75604,214/759-6612,5,3558.81,32.4911,94.7408
C6690,Computer Flash,Mark L Bosted,17610 5th St.,New York,NY,10022,212/708-8148,2,186.7,40.7413,73.9895
C8550,Computer Inc,Phil Yang,20051 Middle Gardena,Spring Grove,IL,60081,312/587-2314,4,2255.71,42.4436,88.2364
C5004,Computer Logic Hurdman,Ted Gifford,6 Ardra Northwest #0-4,Lansing,MI,48910,517/393-9037,4,3132.42,42.734,84.5577
C3593,Computer Opera,Bruce Pierson,W Highway Shetland Gianni,New York,NY,10166,212/599-6119,2,801.67,40.7413,73.9895
C2179,Computer Services,Karill Rigney,29 Great Oaks #908,Milwaukie,OR,97222,503/653-0430,6,3801.4,45.4163,122.631
C1139,Computer Technologies,John Mowery,Po East Genesee Hibert,San Leandro,CA,94578,415/276-7860,6,8410.27,37.6679,122.0784
C6638,Computer Walkinshaw,Ronald Haldeman,Room O. Box 1,Ocean City,MD,21842,301/524-9193,3,4942.32,38.3303,75.0868
C8663,Computerized Komputers Enterprizes,Gary Ansarti,55 N. Elm St. 17,Tulsa,OK,74116,918/437-5215,5,1320.1,36.1515,95.9867
C2196,Computerland Aerial Alarm,Frank Rickard,9465 Wendover Ste Depoian,Houston,TX,77055,713/683-2564,5,2486.45,29.7503,95.3662
C6078,Computing Consultants,Chuck Kmickle,2363 Balboa Medowmere 2,Medford,NJ,08055,609/953-1196,2,3753.99,39.8983,74.8232
C0835,Comsof One Associates,Bob Gannett,2651 Central Street,Golden,CO,80401,303/277-3626,5,203.51,39.7471,105.2249
C5060,Comsof State DSSD,Mike Murray,14651 W Front 209,Coconut Grove,FL,33133,305/444-7594,3,1854.17,25.7727,80.1904
C3531,Consolidated Inc.,Martha Reznikoff,1715 South,Camden,NJ,08103,609/365-3612,2,3015.49,39.9451,75.1196
C4652,Control Communication & Compustuff,Robert Totah,113 N. 33rd Street,Arcadia,CA,91006,818/796-5398,6,6176.09,34.1411,118.1288
C6592,Control Services Computing,David Williams,11530 Freeman,Fort Worth,TX,76179,817/232-4723,5,383.74,32.8576,97.3682
C4037,Control Silver Television,Ray Sawhney,2822 N Elm Bell,Dallas,TX,75220,214/357-2206,5,766.45,32.7815,96.7947
C6163,Corporate Romtec,Kevin Driemeir,3295 58th Ave Building C,Tustin,CA,92680,714/544-2134,6,6113.29,33.7048,117.8831
C7323,Cortez Glaze & Pool,Virginia Mcclaine,669 A Bingle,Dallas,TX,75206,214/363-4593,5,2855.7,32.7815,96.7947
C5737,Countryland Master,Carol Garnett,1165 Alhambra Rd,W. Palm Beach,FL,33406,305/967-1010,3,951.15,26.0104,80.1477
C9470,Cox Computer Gaucher,Chris Southworth,355 Robert Road,Portland,OR,97266,503/771-1648,6,3455.76,45.5228,122.6654
C8735,Cox Rock SDA Systems,Larry Allen,321 W. A Street #2 Sharaton,Aurora,IL,60507,312/892-7038,4,6933.23,41.7606,88.32
C2823,Creative Weidmann Industrial Things,Robert Faul,528 N. W. Turnpike,Wills Point,TX,75169,214/873-2228,5,423.1,32.7074,96.0084
C3637,Crescent Computer Source,Len Madarasz,1604 Central Parkway Avenue,Amarillo,TX,79106,806/372-7291,5,3764.21,35.2061,101.8398
C0675,Crescent Software,Steve Degar,6610 Lydiard Street,Fort Wayne,IN,46804,219/432-5505,4,1658.95,41.0767,85.1327
C0958,Cubinets & Opera,Guy Evans,1023 Way Street,Durham,NC,27701,919/688-2961,3,687.67,35.9954,78.9061
C3499,Culbertson Lawrence,Karl Sivren,1281 North Brown West,Arlington,VA,22209,703/276-5055,3,6169.39,38.8811,77.0985
C2543,Custom Systems Trouble Forum,Boris Fanning,21 Bayshore Medowmere,Rolla,MO,65401,314/341-0538,4,5297.09,37.9501,91.7732
D5635,DA Custom Software Drywall,David Lund,600 Howe Ave Mcdevitt,Vienna,VA,22180,703/281-4036,3,2770.73,38.8998,77.2681
D2466,DPCS Produce,Jack Marino,Po Alhambra Yosemite,Ironton,OH,45638,606/329-6350,4,136.77,38.4664,82.6427
D0825,Daily Thorne,Roger /joe,2888 Leader,Atlanta,GA,30327,404/261-9238,3,1890.09,33.7505,84.3828
D8344,Daniel Software,Toni Flood,2822 View Ridge Avenue,Vandalia,MO,63382,314/544-8889,4,1006.26,38.6267,90.1952
D4778,Data Hurdman,Ardew Bohn,318 Way Tago,Deerfield,IL,60015,312/945-3709,4,90.9,42.1933,87.8664
D0156,Data Inc.,Frank D Roudebush,34 Ventura Blvd Stateline,Nashville,TN,37212,615/327-4255,3,303.31,36.1604,86.7762
D7491,Data White Truck Steel,O. Lipsey,380 Pipe,Ann Arbor,MI,48104,313/668-2612,4,8876.77,42.2842,83.7428
D4003,Data-Corp,Steven Stoner,11 Acs-po Street,Villa Rica,GA,30180,404/836-7520,3,485.27,33.582,85.0774
D7970,David Software,Charles Honig,280 Bear Creek Ave,Hallandale,FL,33009,305/454-6447,3,3828.28,26.0104,80.1477
D8547,Deaufort Office Associates,Marsha Mcclaine,42 Rt. 202,Raleigh,NC,27609,919/872-7861,3,1716.5,35.7862,78.6469
D4962,Dennis and Incorporated,Frank Yellin,3050 Mariners Cove Street,Greensboro,NC,27410,919/299-5357,3,936.83,36.0763,79.7801
D5473,Designer Bank of Bussines,Jimmy Kircher,2172 146th Place Office,New York,NY,10036,212/869-5482,2,938.87,40.7413,73.9895
D9876,Designer Greenhouses,Bill Mostov,208-20316 P. C. F. St,Irvine,CA,92715,714/553-5905,6,1472.43,33.6822,117.7823
D0192,Designer Komputers Group,Alan Au,812 W. 95th Street Suite 1267,Stockton,CA,95207,209/477-5675,6,1923.28,37.958,121.2793
D7934,Diamond Corp,Jack Levine,800 15th,Beaverton,OR,97005,503/644-4051,6,1827.79,45.485,122.8068
D8355,Diamond Inc.,Howard Stevens,437 Inez St,Cerritos,CA,90701,213/865-2668,6,3019.92,33.9053,118.0699
D1351,Diehl Valley,Robert Klinger,110 S Pulaski Way,Bristow,OK,74010,918/367-7402,5,961.99,35.8324,96.3927
D5664,Digital & Mailers,Leo Miller,Oakland State Blvd.,Stockton,CA,95205,209/931-2521,6,380.34,37.958,121.2793
D9567,Dinettes Ltd,R Wigal,5600 Swinton Avenue,Desoto,IL,62924,618/867-4150,4,3846.38,37.8173,89.2325
D6101,Don S. Machinery,Turan Wright,2636 S Dupont Blvd,West Hartford,CT,06110,203/246-1435,1,2026.13,41.7674,72.6776
D7004,Donaldson Quality Research Reptroni,Gary Smith,8656 Finder St. #414,Los Gatos,CA,95030,408/395-7909,6,247.09,37.236,121.9473
D5154,Douglas Inc.,Bill Eddimgton,1209 Essex,Red bank,NJ,07701,201/842-4780,2,40.21,40.349,74.0619
D3926,Dr. Camera Data World,Tom Barba,1613 East Genesee Avenue,Reston,VA,22090,703/471-6464,3,249.07,38.8998,77.2681
D3016,Dr. LaDorn FSA,Robert Kinnaird,3321 Twin Bannister,Pittsburgh,PA,15222,412/825-3662,2,2078.98,40.4117,79.8283
D1609,Dr. Micro Consulting,Oliver Ansarti,816 Manida Colisium,Sunnyvale,CA,94087,408/733-1479,6,1646.55,37.3745,122.0193
D6218,Dr. Softlight Corp,Mowan Bouchard,1065 Mariners Cove Buckboard,Dallas,TX,75247,214/634-1571,5,2591.56,32.7815,96.7947
E4521,EF Data PCA,Bob Delong,1613 F. Spring Ct,High Point,NC,27260,919/889-2152,3,730.63,35.9602,79.9981
E7874,EIS International/David Group,Rick Erdman,1 Richdale National Service Dr,Bakersfield,CA,93309,805/397-3533,6,7642.4,35.3722,119.0141
E0503,EIS Software Kim,Marsha Guernsey,600 W 19th St,Aurora,CO,80013,303/693-0284,5,4262.44,39.6654,104.8795
E4688,Eagle Concepts Systems,Bob Kessler,5050 Manida Rd,Richmond,IN,47374,317/935-5564,4,1336.81,39.8365,84.9053
E0355,Eaton Of Association,Jim Gilbert,145 Oswago Rd,Houston,TX,77079,713/493-4213,5,2171.64,29.7402,95.6102
E6394,Electrical Insurance,Jose Eng,269 E. Street,Croton,NY,10520,914/271-3256,2,8433.67,41.2109,73.8909
E1641,Electronic Cubinets & Tech,Garret Barrett,3360 A Sargent Alfred Place,Fort Collins,CO,80525,303/226-4339,5,1866.81,40.5811,105.0791
E8298,Ely's Chicago,Alan Tincus,4450 78th Avenue,San Jose,CA,95129,408/247-1339,6,1010.71,37.3317,121.8871
E3395,Emerald Francisco,Ron Pecukonis,665 S. Warren,Salem,OR,97303,503/588-9789,6,5589.71,44.9506,123.012
E3388,Enabling Gas,Bob Younger,528 East 42nd Street,Redwood City,CA,94063,415/365-1722,6,1927.95,37.4836,122.232
T9448,Tokyo Johannson,Ron Furina,1701 23rd,North Hollywood,CA,91607,818/763-8177,6,1906.67,34.1671,118.3711
E5036,Excello Inc.,Martin Meeks,2618 Bayshore St,Wilmington,DL,19806,302/652-9033,2,283.93,39.7464,75.5444
F3857,Fallmouth Service,Lori Means,219 W. North Hwy.,Hamden,CT,06518,203/288-3803,1,2490.68,41.3068,72.9231
F7836,Farhill Building Ltd,Tony D. Davis,560 Center Medowmere,Reedley,CA,93654,209/227-9975,6,10294.97,36.74,119.7887
F3147,Farhill Films Gallery,Boris C. Roman,269 East Genesee Ave,Elwood,IN,46036,317/552-7672,4,1675.82,40.2771,85.8355
F0775,Farhill Mahtnai,Alexander Clark,39 Soundview Rd,Turners Falls,MA,01376,413/863-8326,1,1153.18,42.6073,72.5587
F2224,Febas Engineering Insurance,Bill Johnson,4100 Mitchell #230,Somerville,NJ,08876,201/722-2892,2,642.63,40.5688,74.6133
F6693,Financial Stamps Of Builders,Michael Wright,321 N.W. 1104,Dayton,OH,45429,513/434-5036,4,1915.58,39.7593,84.2048
F4695,Financial Computer Masters,Jo Huang,4821 Keith Lexington,Wheeling,WV,26003,304/233-7917,3,4323.57,40.0596,80.7233
F3193,First Computer,Chuck Rapp,222 E 9th,Atlanta,GA,30309,404/892-0961,3,6546.6,33.7505,84.3828
F9400,Florida Services,David Freeland,243 Box Blvd,Los Angeles,CA,90048,213/855-7672,6,1883.53,34.0724,118.3876
F5690,For The Associates,Steve Blazo,9870 Central Avenue,Thornwood,NY,10594,914/769-9532,2,782.46,41.1367,73.79
F3997,Freeland Label Inc.,Gary Smith,4966 S. #202,Oakland,CA,94601,415/535-2939,6,4147.64,37.8058,122.2623
G1529,Graphics Associates,Jerry Wallrod,164 Chapel Hill Street,Fair Oaks,CA,95628,916/961-9062,6,7921.9,38.6391,121.2637
G8898,Gary Company,Adam Cooley,123 Maine Main St.,Manassas,VA,22110,703/361-1329,3,672.09,38.7511,77.4779
G7921,Glen C Data Centre Technologies,Chuck Best,2205 Landmeier 209 D,Burnt Hills,NY,12027,518/399-3691,2,1180.66,42.8154,73.9391
G1558,Goods For The Masses,Steven Hagerty,2401 Street,Phoenix,AZ,85040,602/276-5827,5,2684.18,33.4393,112.0743
G4196,Graphic Chip Computing,Ann Wood,1604 Cherrywest Blvd,Arlington,VA,22201,703/522-9229,3,1935.81,38.8811,77.0985
G7488,Great Form,Dorit Mowery,90 North Place,Mesa,AZ,85204,602/892-8572,5,2523.5,33.4159,111.8288
G3496,Ground Association,Glenn Williams,6610 Main,Atlanta,GA,30329,404/321-1098,3,4739.68,33.7505,84.3828
G1214,Grounded Computer Electronics,Dave Castro,437 Kingsbrook Sharaton,Rochester,NY,14617,716/544-7718,2,301.28,43.1593,77.6208
G8793,Ground Forestry,Bob Degar,2763 Perry Lexington,Gurnee,IL,60031,312/249-4124,4,5686.06,42.3705,87.9156
H3183,Harold's Systems,Tom Tweedy,101 Mt. Diablo 23rd,Biloxi,MS,39531,601/388-9160,3,1575.48,30.4009,88.8983
H6038,Hammell Corp.,Edward Strange,Box Square Suite 56,Odessa,TX,79762,915/362-7538,5,12356.9,31.8482,102.3754
H8113,Hammell Music Inc,George Matthewes,4215 Bering Blvd.,Tulsa,OK,74146,918/663-0606,5,2551.21,36.1515,95.9867
H1532,Hammerman Systems,Paul Dixon,3700 Leigh Bannister E,Gardena,CA,90248,213/532-2286,6,1845.6,33.882,118.2859
H1997,Hardware Aviation,Alan Droege,750 West Tucker Street,San Mateo,CA,94402,408/247-7833,6,4491.56,37.3317,121.8871
P4306,Processing Tech. Times,Fred Locey,6040 West Main 201,Raleigh,NC,27609,919/847-5906,3,5878.25,35.7862,78.6469
H9593,Harpoon Club,Joseph Mitchell,902 Balboa Colisium,Greenville,SC,29609,803/292-1173,3,2696.96,34.8502,82.4027
H5628,Harpoon Logic Systems,Art Corson,408 North Ave,San Diego,CA,92108,619/569-8343,6,5840.3,32.8021,117.1567
H7364,Harpoon PCA,John Bryant,101 S Post Oak Suite E4,Phoenix,AZ,65020,602/943-5082,4,17777.06,33.5648,112.0619
H9727,Harpoon Store,Ron Morrison,648401 North 15,Little Rock,AR,72205,501/663-9706,5,1688.07,34.7488,92.286
H9119,Harris Acusystems,Bruce Siltman,910 S Los Angeles Court,Orem,UT,84058,801/226-4566,5,1532.23,40.2321,111.6686
H0672,Harris Color Computing,Bonnie Hower,Randy Violet 203,Milpitas,CA,95035,408/942-7875,6,1468.48,37.3317,121.8871
H8628,Hearth & Color Farm,Charles S. Phipps,24 Civic Drive 120,Bloomington,MN,55431,612/545-0161,4,3970.95,44.968,93.1857
H3122,Hennekee House World,Tom Leonard,247 Shetland Street B,East Lansing,MI,48823,517/351-6079,4,1921.83,42.734,84.5577
H5933,Herring Inc.,Bruce Smith,1873 First National Kirkman,Albuquerque,NM,87102,505/842-9770,5,5019.53,35.0806,106.6502
H7521,Hess Oil & Vision,W. Keji,8511 S Bannister,Ukiah,CA,95482,707/462-5016,6,7276.85,39.1515,123.204
H7516,Hesser Inc.,Allan Biro,418 E. Box Ave,St Charles,IL,60174,312/377-2168,4,3843.13,41.9142,88.3086
H6390,Hi-Tech Computeach,Bill D. Bitaille,2693 Central Parkway Drive,Houston,TX,77072,713/933-9415,5,6624.99,29.6746,95.5959
H5572,Hill Companies Of Marin,Alan Murray,358 Crescent Ave,Burlington,NC,27215,919/227-2638,3,1831.05,36.0913,79.4315
H5736,Hoffman Systems,Ron B. Penick,6 Ardra 1/2 College Kent A,San Francisco,CA,94110,415/550-9108,6,1016.09,37.7894,122.4041
H3991,Howland Mystery World,Richard Ansarti,34 Dalby Swanson,Newport Beach,CA,92660,714/476-4136,6,3010.03,33.6822,117.7823
I7463,I & S Marketing Inc.,William Starks,53011 Sellit Ave,New York,NY,10017,212/557-8631,2,32.5,40.7413,73.9895
I8908,I & S Programming,Tom Bachman,5829-c Arlington Dr,Stillwater,OK,74074,405/377-6073,5,1974.74,36.1178,97.0566
B3104,Baptist Im-pak,Randal Apte,Keith Van Dyke Suite Northern,Ann Arbor,MI,48104,313/769-3038,4,3276.16,42.2842,83.7428
I5400,IMR Roch,Frank A. Case,1715 N 17th St Ste 1265,Santa Clara,CA,95050,408/727-4330,6,12690.95,37.3317,121.8871
I9276,Ian's Saudisoft,Mike Cherneff,Iain E Rt 203,Nashua,NH,03060,603/888-3526,1,1308.99,42.7621,71.4625
I9878,Incorporated Inc.,Les Brewster,3205 Dove Street,Memphis,TN,38118,901/362-7695,3,2525.13,35.1435,90.042
I9271,Info Ltd,Gui Pitts,351 N. 33rd #40,Montville,NJ,07045,201/748-7860,2,3391.29,40.7998,74.2041
I5314,Info Management MCS,Don Howland,911 N Maywood Gilsinn,Windsor,NC,27983,919/794-3982,3,4121.29,35.9957,76.9484
I6061,Information Computing,Tom Gold,127 South Third Drive,Concord,CA,94520,415/680-4727,6,6804.79,37.9748,122.029
I4547,Interior Co,John Cooley,12 West Main Cunard,Honolulu,HI,96816,808/737-2288,6,9076.56,21.3069,157.8583
I8008,International Business Solutions,Richard Wilson,1950 42nd Offices,Tallahassee,FL,32303,904/224-8420,3,1187.14,30.4421,84.285
I0979,Investors Corp,Norm Mills,12218 Arcade,Hingham,MA,02043,617/749-2679,1,1436.24,42.2442,70.8769
I2735,Iolab Computer Inc.,Mike Porochnia,773 Lane,Tallahassee,FL,32303,904/224-9639,3,3519.62,30.4421,84.285
I6659,Island Data Centre Registry,Reid Tweedy,4003 East 1500th,Bellevue,WA,98004,206/453-0435,6,11433.87,47.6077,122.2052
I5166,Island Fabric Designs,Bob Palmer,1707 San Taffeta #528,Granada Hills,CA,91344,818/363-2333,6,6926.0,34.282,118.4504
I0769,Island Ferrari Distributors,Wayne Dickley,903-300 French Ave,Walnut Creek,CA,94598,415/945-6566,6,3073.16,37.8993,122.0572
I5668,Island Services,Marty Komerossky,513 Komisky Ave,Commack,NY,11725,516/499-9572,2,4738.29,40.8402,73.3107
J7354,JLS Consulting,Frank Reyes,3306 Olive 10th Blvd,N. Wilkesboro,NC,28659,919/667-6510,3,359.19,36.1647,81.1371
J1827,JS Department Solutions,Jim Jones,Dept Nw 50th Division,Laguna Hills,CA,92653,714/770-7131,6,618.6,33.6233,117.6892
J5564,Joe Alternative Inc.,Peter Dot,8281 S Blvd,Edison,NJ,08820,201/321-5753,2,269.25,40.5413,74.3618
J5600,John Baptist Laboratories,Howard Gilbert,17 2nd Ave Ste Yosemite,Oakland,CA,94610,415/652-5404,6,5689.01,37.8058,122.2623
J9173,Johnson Mahtnai,Bill L. Clifton,Attn:dennis Noland Hibert,Malta,IL,60150,815/825-3292,4,2968.35,41.9335,88.8676
J4689,Johnson Specialties,Betty Harris,600 Flatt Blvd.,Jackson,MI,49201,517/784-5590,3,350.34,42.253,84.4189
J0437,Jozier's Boutique,Dee Jones,Route Danbury Meadowmere E,Wilton,CT,06897,203/762-1543,1,80.04,41.1959,73.4307
J6007,Jupiter Designer Sofas,Isador Barnebey,125 South Trenton Lakeshore,Havelock,NC,28532,919/447-1259,3,739.41,34.8832,76.9275
K7042,KKT Associates,Chuck Caron,4 L St. Dept E,New York,NY,10038,212/619-8657,2,1253.57,40.7413,73.9895
K8225,K Computer Consultants,Neal Soltis,Academy Lingco Suite Lexington,Dallas,TX,75240,214/788-6572,5,1358.77,32.9433,96.7998
Z5585,Zion Baptist Software,James Miley,118 South 5th Windswept,Sebastopol,CA,95472,707/874-1785,6,3776.36,38.4089,122.946
K2685,KLK Blackship Partners,Bob Ring,557 Forest Information,Bloomington,IL,61701,309/663-0366,4,58.89,40.4829,88.9996
K1366,KLK Pharr Systems Inc.,Jay Hanson,74 San Aleso Ave,Bloomington,IL,61701,309/379-2680,4,855.48,40.4355,89.2229
K5639,Kang Service,Richard L. Bechtel,92nd North Street,Griffith,IN,46319,219/924-9571,4,2168.7,41.5549,87.4571
K7882,Kapalua Computer FSA,Etienne Gossnergan,648401 John St. Rm. 3 Box-2830,Mankato,MN,56001,507/625-4210,4,2144.28,44.1667,94.0051
K2833,Key Furniture,Bob Clark,2042 Westbend Ave Apt #908,Sacramento,CA,95825,916/648-0192,6,6161.97,38.5749,121.4793
K0899,Kirk Ease Types,Shawn Power,443 Main Street,Washington,NC,27889,919/946-5018,3,3323.24,35.5392,77.0525
K8151,Kirk National Bank of Werney,Steven Porochnia,18 Worthington Street,Los Angeles,CA,90071,213/472-6755,6,27.72,34.0522,118.4473
K6983,Knowledge & Information Associates,Nancy Gillett,3732 Lockwood #211,Waltham,MA,02154,617/890-2506,1,494.01,42.3758,71.2348
K4421,Kohl Ltd.,David A. Tartaglio,4205 Main Street #638,Miami,FL,33178,305/593-8429,3,4159.94,25.7727,80.1904
K5550,Kosek & Snyder Sharpening,John Kenes,10533 Swinton Box-2830,Houston,TX,77092,713/462-9288,5,632.56,29.7503,95.3662
L4642,LPS Films Products,Randy Bitondo,6094 Danbury Avenue,Morehead City,NC,28557,919/726-0596,3,11310.96,34.7223,76.7301
L2366,LA Computer Associates,Paul Younger,15508 Washington Greenview,Chapel Hill,NC,27514,919/962-3813,3,2456.67,35.9099,79.0552
L9124,LA Processing Enterprises,Alan Murphy,351 Motor Road,Lyndeborough,NH,03082,603/654-8946,1,4863.5,42.8443,71.7326
L1774,La-Tronixs Computer Furniture,Thomas Case,170 Place St,Glendale,CA,91206,213/243-4144,6,708.27,34.1633,118.2118
L6193,LaDorn Computer Corportation,Marshall Ashford,158 Taafee Mothload,San Diego,CA,92126,619/695-4948,6,687.72,32.9142,117.1269
L0233,Leasing Research,Bob Greaves,355 Candace Drive,New York,NY,10038,212/608-2401,2,4300.41,40.7413,73.9895
L4603,Legal Corp.,Dave Mowery,355 Club,Cincinnati,OH,45237,513/731-8895,4,3743.7,39.101,84.5169
L5705,Legal Inc,Jim Kuklinsky,1950 E 5th Landing,Farmington Hill,MI,48018,313/624-3487,4,9521.57,42.5361,83.4867
L2551,Letters Computing & Associates,Jim Egley,1785 Envelope St.,Dallas,TX,75207,214/747-7039,5,1924.25,32.7815,96.7947
L1673,Life Systems Trouble Co,Bob Koperkin,1949 Rocky Rd.,Bloomville,NY,13739,607/746-3886,2,4166.8,42.2799,74.9174
L4403,Lifestyle Culligan,Douglas Hekimian,130 Heinz Ne,Tacoma,WA,98402,206/734-2810,6,3784.56,48.7485,122.4693
L1693,London Technologies,A. Bostwick,111 E. Skeloy Ste Radner,Columbia,SC,29202,803/748-0016,3,4778.75,34.0094,81.036
L0045,Long Co.,Ray Best,3434 New Peachtree Ave,Costa Mesa,CA,92626,714/641-3786,6,5804.13,33.7048,117.8831
L5985,Lucas Services,Rosa Johnson,65 Bluff St,El Paso,TX,79912,915/584-1490,5,2974.65,31.7539,106.4841
T6275,Thinfilm Computer Inc,Jess Bitondo,405 Manhattan Ave. Ste 212,Agoura,CA,91301,818/889-2717,6,6892.47,34.1394,118.7574
M6398,Magus Label Inc.,Mark Cummings,2222 Ventura Blvd South,Springfield,MO,65803,417/862-3136,4,624.48,37.2188,93.3014
M2989,Magus Real Inc.,Tom Letsch,1512 Charles St Po Box 12,Coral Gables,FL,33134,305/861-0540,3,1392.57,25.7727,80.1904
M5574,Malmberg Engineering,Darryl Kelley,1785 Green #13,Houston,TX,77092,713/957-4796,5,960.39,29.7503,95.3662
M2173,Malmworth PC,Don Means,410 San Carlos St. #4143,Topeka,KS,66611,913/267-3492,4,247.08,39.0504,95.6787
M1094,Management Res.,Lisa Reozan,1950 Gilbert Ct.,Kearny,NJ,07032,201/991-8550,2,2467.72,40.7733,74.1471
M3107,Manhattan Tempering Computer,Larry Roepe,9307 Red Road Ste Street,San Francisco,CA,94104,415/434-2631,6,1658.35,37.7894,122.4041
M1333,Marin,Judy Lavrion,4966 M Street,Lawndale,CA,90260,213/973-6835,6,12872.83,33.9133,118.3485
M5730,Marina,Chris Spence,1023 Federal York,San Carlos,CA,94070,415/592-9492,6,1536.11,37.5084,122.2575
M7342,Marion Weidmann Industries,Guy Johnson,20194 E. Kimberly Dickens,Houston,TX,77063,713/784-5940,5,4141.85,29.7503,95.3662
M4004,Marion Message Marwick,Tom Tillotson,7 Swan #120,Tulsa,OK,74135,918/628-3660,5,4035.9,36.1515,95.9867
M9902,Mark Associates,Harry Stubbings,444 Stoneman Ave. Digiulio,Mt. Vernon,WA,98273,206/428-0254,6,1210.92,48.4279,122.328
M5485,Mark Software,Bob Cumming,1852 Twain Avenue,Salem,OR,97301,503/585-9807,6,1208.45,44.9506,123.012
M3692,Martin Group,Greg Teicher,20 Church St.,San Ramon,CA,95131,408/435-7071,6,17623.25,37.3317,121.8871
M0211,Martin Software,Bob Mikelk,113 E. Skeloy Ste 2,San Ramon,CA,94583,415/828-0496,6,7243.86,37.739,121.9405
M6716,Mary Ammonia Corportation,Bob J. Tingler,3335 North Highway Rd.,Denver,CO,80222,303/759-2334,5,558.49,39.7419,104.998
M4640,Mary B. Jacobs & Solutions,Michelle Sine,1949 Jefferson North,E. Hanover,NJ,07936,201/884-2245,2,464.91,40.826,74.4129
M3565,Mary Electric,Dorit Bush,18 N Gaston Bldg E,Sarasota,FL,33580,813/355-7696,3,9254.09,27.3412,82.5344
M2855,Mary Opera,Tom Cumming,4691 Singer Box 2726,Charlotte,NC,22709,919/549-6655,3,3340.49,35.9954,78.9061
M1263,Mary Tell's Floor Micro-software,Randy Jaeger,14955 Lady Ellen Coust.,Atlanta,GA,30309,404/233-7164,3,205.14,33.7505,84.3828
M0633,Masonex Vision,Dave Zach,3321 Ford Avenue,Billings,MT,59101,406/256-8334,4,3601.33,45.7774,108.5074
M6970,Mecham of Wisconsin Systems,David Schitt,66 College Park Dr. #67,San Antonio,TX,78239,512/650-7428,5,565.08,29.527,98.3868
M6461,Memorial Data,Joe Geers,3 E Clinton Way,Fort Pierce,FL,33451,305/564-8443,3,1130.93,26.1191,80.1412
M3429,Memorial Gaucher,Bruce Huang,1890 Center South,Chicago,IL,60612,312/533-1688,4,135.55,41.8839,87.6371
M0309,Metal Products Computing,Martin Nichols,15713 Ironbit Dr,Knoxville,TN,37917,615/521-2657,3,4762.0,35.97,83.9297
M1217,Micom Thomas Law,Jim Schwab,21657 Emeline Ne,Colorado Spring,CO,80909,303/597-3101,5,707.21,38.8542,104.7543
M3927,Micro 482,Dennis Maslowski,52 Mart,Savanna,GA,31405,912/352-4150,3,926.46,32.0763,81.0905
M2367,Micro Ammonia Optometric,Toni C Baker,4933 Buchanan Rd,Mundelein,IL,60060,312/949-6469,4,1668.39,42.2169,88.0494
M8965,Micro Communication Industries,Ron Alvis,3205 East Lancaster Dr,Fresno,CA,93728,209/266-5761,6,1157.46,36.74,119.7887
M8285,Micro Organic Consulting,Alan Morgante,4875 Candlewood #1762,Fremont,CA,94539,408/942-8178,6,5230.91,37.3317,121.8871
M9214,Micro Inc.,Joe Evans,1115 Dell Avenue,Newburyport,MA,01950,617/462-2438,1,1989.78,42.8125,70.8778
M1773,Micro International,Linda Bott,99 Kearny Road,Webster Groves,MO,63119,314/961-8601,4,2254.06,38.5989,90.3628
M4055,Micro LTD.,Rosa W. Nicolopoulos,888 Candlewood West,Baltimore,MD,21208,301/363-9977,3,811.47,39.3766,76.7255
M8989,Micro Mayo Inc.,Geoffrey Wood,1 Lory Maria Lane Ste Essex,San Luis Obispo,CA,93401,805/541-1663,6,2096.42,35.2842,120.6649
M9760,Micro Ripoint,Jeffrey Sivren,2483 Dogwood Dr,New York,NY,10043,212/559-7824,2,15898.09,40.7413,73.9895
M7986,Micro Test & Assembly Corporation,Marian Stone,7335 E Victoria Mall,Boca Raton,FL,33431,305/394-8309,3,1239.18,26.3583,80.0833
M6830,Micro Time Corp,Ted Williams,9092 East Genesee Trail,Cincinnati,OH,45202,513/381-5929,4,456.86,39.101,84.5169
M6615,Mike's Knives & Shields,Dee Morin,5100 West Tucker Street,Sausalito,CA,94965,415/331-2529,6,14537.76,37.8593,122.4818
M3171,Mike M. Business Equipment Corp.,Larry Thompson,3413 Meadow Lark St,METAIRIE,LA,70002,504/832-7911,4,1845.68,29.9486,90.0773
M9823,Min/Max Builders,Rich Mossbarger,1501 Larkspur Zappice,Raleigh,NC,27606,919/851-3301,3,1289.08,35.7862,78.6469
M7709,Maximal Computing Prosthesis,Sandy Crosby,6 Dumont Paige,Hilliard,OH,43026,614/261-4356,4,1656.95,39.9681,83.0051
M5171,Min/Max Resource Systems,George Southworth,Dan Violet 120,Appleton,WI,54911,414/733-1643,4,1007.2,44.2561,88.403
M5209,Mini-Byte Terminal,Thomas Rasmussen,909 Twobit Avenue Box-2830,Fresno,CA,93726,209/222-2550,6,2211.27,36.74,119.7887
M1535,Mixing Business Equipment,Wayne Stanger,1030 Silas Dean Ave,Ft. Lauderdale,FL,33334,305/563-8682,3,16005.92,26.1191,80.1412
M3640,Metaphore Mixing Computerware,Alan Nichols,15607 Alhambra 528 C,Miami,FL,33138,305/751-8517,3,4106.83,25.7727,80.1904
M9916,Mixing Systems & Company,Larry Locey,318 Marshall Landing,Dyer,IN,46311,219/865-6010,4,5311.38,41.4962,87.5194
M8605,Mullett Electric Ltd,Clinton Malin,6110 Inez Street,New Rochelle,NY,10801,914/576-5264,2,859.9,40.9223,73.785
M2822,Mullett Service,Bob Haddad,1613 Kangaroo Ct.,Fremont,CA,94536,415/791-6888,6,9281.36,37.5569,122.0073
N8250,NCF Enterprises Business,Richard Griffiths,2000 3rd Court,San Diego,CA,92103,619/296-4399,6,4149.8,32.7171,117.1476
N0321,Nacom Bus Inc.,Jeff Hagerty,1640 Water Park Drive,Greenwich,CT,06830,203/622-3825,1,2958.16,41.0265,73.6262
N4737,Nacom of Mclean Schenker,Tom Rosen,5000 78th Avenue 1267,Lockport,NY,14094,716/439-7914,2,4335.22,43.173,78.6953
N2278,New Software Inc,Toni Cloudtree,666 Pike,Oak Park,IL,60302,312/848-0658,4,2838.32,41.885,87.7844
N8062,Norma Calgary,Graham Angelo,1207 Keith Place,New York,NY,10013,212/966-5304,2,17548.14,40.7413,73.9895
N8113,Norma Softwires,Peter Gillett,509 Limpcircuit Street,Menomonie,WI,54751,715/232-7702,4,633.13,44.8776,91.9301
N2704,Numerical Furniture,Justina Hale,77 Second Broad Drive,Hurst,TX,76053,817/260-2161,5,102.62,32.8233,97.1703
O3203,Office Electric,Doug Skinner,1441 Power Rd,Wheaton,IL,60187,312/653-6730,4,4438.58,41.8661,88.1069
O0553,Oil & Gallery,Paul Schuartz,8656 N Ave.,Pleasanton,CA,94566,415/426-8117,6,3164.15,37.6565,121.8827
O5570,Omni Electronics,Keith Paulsons,4011 Coconut Creek English,Portland,OR,97202,503/295-8076,6,899.19,45.5228,122.6654
O2816,Orchand Time Corp,Tim Nelson,2536 Heatherfield 307,Utica,NY,13501,315/732-5184,2,4793.41,43.1065,75.2269
C3163,Computer Church Pews,Terry Eldredge,4650 Westbend Ave Apt #4U,Narberth,PA,19072,215/423-2455,2,3336.58,39.9512,75.1508
P2338,P. Technology Incorporated,Len Lavrion,11 North Street C,St Louis,MO,63124,314/968-7444,4,133.76,38.5989,90.3628
P1712,PC Creations,Mike Palmer,650 Mariners Cove St,Fairmont,WV,26554,304/367-4444,3,14793.66,39.4843,80.1408
P4047,PC Bogg Center,William Richards,7953 N 17th St Ste D,New Bremen,OH,45869,419/629-6499,4,5419.24,40.4364,84.3851
P1229,PC Tech,Mark Miley,1707 Westbend Ave Apt # 178,Lawrence,KS,66046,913/841-6710,4,548.34,38.9666,95.2441
P8270,PCB Rent-A-Tool,Bob Everett,410 N Maywood 113a,Irvine,CA,92714,714/261-3404,6,14072.22,33.6822,117.7823
P6547,PMS Buscom,Harry Perez,809 1/2 College Box-2830,Chicago,IL,60605,312/427-1978,4,535.99,41.8839,87.6371
P7467,PSI PC,Marvin Yang,2363 N 17th St,Cupertino,CA,95014,408/255-7371,6,5294.21,37.3317,121.8871
P9276,Palmetto Office Group,Jon Comfort,243 Riverton,Logan,UT,84321,801/753-9679,5,1187.86,41.7314,111.8294
P4721,Palmetto Catsup Products,Marion Neys,11530 Seneca,Los Angeles,CA,90064,213/477-5277,6,3765.72,34.0522,118.4473
P6039,Palmetto Shop,John Dewald,323 John N. 33rd Depoian,Memphis,TN,38134,901/386-2134,3,1252.91,35.1435,90.042
P0199,Paretta Center,Graham Novisky,16900 McDonald #4e,New York,NY,10014,212/691-5882,2,1758.89,40.7413,73.9895
P6268,Paretta of the Sea Inc.,Jeffrey Doner,1300 Ocean Blvd.,Madison,WI,53719,608/744-4355,4,1577.56,42.6109,90.4367
P2838,Pasar Software Furniture,Bernie Gdonski,521 East 42nd Street,Forest Park,GA,30050,404/366-3721,3,2501.88,33.7505,84.3828
P2931,Patrick Inc,Edmund Harrell,1873 Nw 50th Avenue,E Cleveland,OH,44112,216/851-3379,4,148.41,41.5004,81.6822
P6919,Patrick MBA,Nadine White,3252 Polaris Hwy,Santa Ana,CA,92701,714/633-1176,6,4451.98,33.7832,117.8447
P6925,PC Real-Time Widgets,Phil Griffiths,Iain Offices N.,Costa Mesa,CA,92626,714/549-3083,6,380.6,33.7048,117.8831
P0047,PC Software Master,Warren Jones,11212 Cylinder 120,Nashville,TN,37215,615/385-2834,3,412.92,36.1604,86.7762
P1105,PC Works,Ted Skolnik,778 Great Oaks #202,Rio Grande City,TX,78582,905/537-4805,5,6768.92,26.5736,98.8714
P8438,Peat Corportation,Wallace Crosby,34 O St,San Jose,CA,95152,408/926-8258,6,329.88,37.3317,121.8871
P8682,Philadelphia Alarm,David Werney,4100 River Road Hwy,Erie,PA,16501,814/455-2115,2,5748.22,42.1214,80.087
P0599,Planning & Machinery,Richard Cetrone,6214 Tower,Savannah,GA,31401,912/232-9803,3,360.19,32.0763,81.0905
P3621,Polytron Business Machines,Mike Gilbert,119 Anjco Blvd,Cincinnati,OH,45230,513/231-4793,4,707.7,39.101,84.5169
P9395,Poseidon Bay Consultant,Michael Clark,3225 West 15th St.,Los Angeles,CA,90026,213/250-9886,6,692.23,34.0495,118.248
P3345,Posna Associates,Robert Miller,9092 Brandywinne,Andover,MA,01810,617/475-9321,1,2361.61,42.6583,71.1375
P8421,Powell Mirror Cable Inc.,Doug Schunning,456 Montebello Highland Rd,Arlington,TX,76013,817/460-7865,5,1887.57,32.7348,97.1098
P7090,Powell Systems Trouble,Frank Castro,1227 Industrial Ave,Wilmette,IL,60091,312/251-7948,4,3345.43,42.0722,87.7228
P9596,Power Center,Scott Sanders,463 Main Discovery Bay Ave,Vacaville,CA,95688,707/448-8722,6,1894.66,38.3504,121.9815
P2350,Price's Supply,Bruce Werney,1115 Bensin 86th E,Houston,TX,77079,713/493-7343,5,762.46,29.7402,95.6102
P8065,Print Mayo Consultation,Robert Johnson,830 Dellbrook 614,Lowell,MA,01852,617/458-3960,1,8649.13,42.6333,71.3167
P7545,Print Software Compuclassics,John Daniels,345 Keith Avenue,Saint Louis,MO,63128,314/849-7006,4,1694.11,38.516,90.3883
P6021,Print State TV,Mark Pytlinski,158 Turner Industrial Ave,Decatur,IL,62525,217/423-5213,4,6212.21,39.8399,88.9531
P7033,Pro and Power,Joel Miller,5526 Western Ave,Phoenix,AZ,95040,602/276-6239,6,348.34,33.4393,112.0743
P2038,Professional Inc,Robert Springer,1008 Swanson,Sudbury,MA,01776,617/443-5078,1,291.5,42.3861,71.4133
P5460,Programs Margolis,Ed Miller,1936 Rollins Blvd,San Francisco,CA,94109,415/776-6749,6,3811.85,37.7894,122.4041
Q5038,Q-Data Erectors Aviation,Sherrlee Van Lockern,125 Ventura Blvd Ste Cunard,Woodsboro,TX,78393,512/543-1307,5,4687.11,28.2321,97.3333
Q7813,Q-Data Church of Santa Clara,Gene Troiano,8875 Condado Ste. 30,Carmichael,CA,95608,916/486-2737,6,1477.41,38.5749,121.4793
Q5286,Quik Assistance,Lawrence Krouse,1201 Winchester Road,Scottsdale,AZ,85254,602/953-8069,5,5331.48,33.4903,111.92
R0079,R. Systems,Jim Schunning,20051 Computer St,Reston,VA,22091,703/476-7608,3,602.18,38.9659,77.3813
R6860,R. XCI,Bill Summerley,989 Academy Bayshore Street,Las Vegas,NV,89102,702/871-2469,5,1612.0,36.1675,115.1421
R8703,RPW Tell's Floor Inc,Joseph Mossa,260 Gilman Information,Salt Lake City,UT,84119,801/974-3080,5,2213.0,40.7571,111.8805
R0120,Raybank Marina,Jeff Coerper,9000 36th Blvd,Deale,MD,20751,301/867-1357,3,1042.13,38.8516,76.6009
R5705,Raybank Services & Computing,Jerry Campanonoy,1008 Nickelson,Phoenix,AZ,85021,602/943-4609,5,655.91,33.5648,112.0619
R6757,Raymond Computing,Beth Lund,4534 Third Avenue Suite 1,Dayton,OH,45439,513/229-2046,4,8996.02,39.7593,84.2048
R6042,Rent-A-Tool,Tom Novisky,26432 College Park Dr.,Pocatello,ID,83201,208/233-2822,5,4399.12,42.8668,112.4454
R7362,Resource Masters,John D. Creaney,990000 Old Office,W. Hampton Bch.,NY,11978,516/878-7428,2,797.87,40.8029,72.7892
R5104,Responsive Electronics,Bernie Waltman,1949 Wiggling Creek,Pleasant Hill,CA,94523,415/689-8073,6,87.36,37.9748,122.029
R0077,Richard Leasing MCS,Fred Overall,560 Broad Pike,Seattle,WA,98108,206/762-3692,6,4354.07,47.6097,122.3274
R2868,"Richard Marketing ""Coaching""",Bob Runyard,7688 Oak Avenue,Tulsa,OK,74104,918/587-3569,5,7860.98,36.1515,95.9867
R1988,Richard Systems,Virginia Erdman,6267 N.W. 53rd Department x,Cherry Hill,NJ,08003,609/424-7209,2,1224.53,39.9003,75.029
R7699,Robert C. F. Enterprises Computer,M. Yang,3244 Oak #20,Buffalo,NY,14222,716/881-7489,2,2809.56,42.8838,78.8726
R0594,Root Micro Kinetics,Chris Pecukonis,15614 Tree Unit,Woodhaven,NY,11421,516/248-5859,2,3549.57,40.7318,73.6114
R2831,Ross & Associates Products Inc.,Gary Collins,1523 New Peachtree Turnpike,Woodbridge,CT,06525,203/397-1368,1,2756.17,41.3068,72.9231
R4067,Ross Authority,Mike Brown,76 Bala Cynwyd Street,Westlake Villag,CA,91361,805/496-5380,6,1720.79,34.1634,118.8415
R2676,Rubber & Designs,Warren Eldredge,5000 Morton Ave,Des Moines,IA,50315,515/271-1411,4,335.37,41.5906,93.6276
R4218,Rubber Group,Richard Watts,3015 Park Place,Simi Valley,CA,93063,805/522-4705,6,5423.53,34.2656,118.7709
R0048,Ryan-Givens Computing,Bruce Matthewes,9 Mono Catalina Court,Prairie Village,KS,66208,913/648-8326,4,2074.65,38.9843,94.6832
R8249,Ryan-givens Corp,Jack C. Barkoe,211 E Main St,Schaumburg,IL,60193,312/980-4363,4,7580.73,42.0333,88.0833
S9693,S & S Logic Times,Frank Cona,145 East Lancaster #101,Novato,CA,94947,415/892-9003,6,14460.75,38.1075,122.5647
S2593,SC Co.,Gene Patterson,98787 Lockwood Ln,Scottsdale,AZ,85253,602/991-1550,5,543.28,33.4903,111.92
S3820,SC Engineering,John Jorganson,355 Pascal,Chico,CA,95926,916/343-0085,6,4395.51,39.7336,121.8371
S7607,SC Telephone Group,Craig Richards,2536 56th Cherry,San Jose,CA,95125,408/267-9373,6,1512.07,37.3317,121.8871
S2328,SCS & Farm,John Mcclaine,20 Greenville Colby,Tappan,NY,10983,914/359-0276,2,5311.61,41.0422,73.9159
S3625,SOFTWARE Computer Service,Jose Pytlinski,2045 West 22nd Suite 5,Glenview,IL,60625,312/622-3858,4,3854.52,41.8839,87.6371
S9601,"Systems, Inc.",Bob Habuda,2905 Basketball Court,Los Angeles,CA,90041,213/257-4119,6,429.04,34.0495,118.248
S0111,Sacred City Steel Inc.,Bert Ball,111 Board Of Internal Road,Cleveland,OH,44122,216/292-4892,4,1355.19,41.4691,81.4998
S1924,Sandt Consultants,Art Eaton,6 Dow St,Glen Cove,NY,11542,212/962-6581,2,4941.33,40.7413,73.9895
S8464,Scott Computer Ltd.,Wallace Hedgepath,7041 Avenue Alexander,Minneapolis,MN,55402,612/338-3761,4,1123.43,44.968,93.1857
S0138,Sefi H Corp Assistant,John Fox,4720 S Cornwallus,Waukesha,WI,53186,414/547-8763,4,1353.11,43.0103,88.2293
S8496,Service Associates,Dennis Davis,2752 Zappice,Tustin,CA,92680,714/544-6738,6,4900.06,33.7048,117.8831
S1999,Services,Bill Romkey,21628 Harbor Square,Canoga Park,CA,91306,818/709-3140,6,4926.62,34.1879,118.5865
S6968,Sher-Wood Design Computing,Jack Surbrook,Highway 20 P. C. F. Cedar,Bellflower,CA,90706,213/866-4905,6,866.47,33.9053,118.0699
S3182,Silicon Computer Calgary,Ralph J Daniels,3200 Wisconsin Ave,North Abington,MA,02351,617/878-7447,1,1242.57,42.1289,70.9097
S6832,Ski Computing & Systems,Mark Overall,211 Douglas Station,Bountiful,UT,84010,801/298-3517,3,3708.41,40.8887,111.8798
S5857,Ski P Schenker,John Taylor,11530 Bala Cynwyd #787,Yalesville,CT,06492,203/265-4221,1,1141.1,41.4568,72.8134
S6189,Snow Aerial Realtors,Tony Kennedy,12218 Ellsworth Industrial,Barrington,RI,02806,401/245-2019,1,678.3,41.7276,71.2662
S4673,Softlight Carolina Jenrette,Matt May,170 Argonne Lane,Utica,NY,13502,315/732-2791,2,7672.8,43.1065,75.2269
S9559,Software Associates,George Clark,15696 Washington,Milwaukee,WI,53214,414/257-4294,4,6461.64,43.0433,87.9511
S2582,Software Corporate Forms Systems,Zarina Fountain,8260 Venice Avenue,Atlanta,GA,30339,404/261-0306,3,12277.45,33.7505,84.3828
S8907,Software International,Martin Barba,P.O. Box 1,Milpitas,CA,95035,415/753-1454,6,331.54,37.7894,122.4041
S8820,Software Lester,John Marshall,11444 Catalina Suite 9,Houston,TX,77018,713/680-6993,5,1224.74,29.7503,95.3662
S1276,Software Power Data-Corp,Kevin Freeman,3485 Allingham Hwy,St Paul,MN,55101,612/222-0909,4,5552.97,44.968,93.1857
S9045,Software White Truck,Larry Murrow,8463 Market Street,Louisville,KY,40222,502/426-7765,4,5638.5,38.2441,85.7607
S1741,Sol Oxford,Bob Semeglan,141 Progress St,Palo Alto,CA,94301,415/328-7628,6,768.9,37.45,122.1557
S8962,Sol Services,Larry Crane,130 Earth Suite A17,Melville,NY,11747,516/673-6072,2,1378.8,40.8712,73.4245
S8064,Soltis & Inc.,Darrell Means,151 Broad,Ann Arbor,MI,48104,313/769-9760,4,848.8,42.2842,83.7428
S8102,Soltis Marina,Nancy Kircher,Dock 116,Chattanooga,TN,37406,615/624-4504,3,10268.0,35.0425,85.3152
S4876,Soltis Software Systems CRT,Allan Castro,8308 East Broadway,Escondido,CA,92025,619/489-4096,6,917.77,33.1172,117.0829
S5632,Soltis Systems Trouble Systems,Wm. Younger,407 Dogwood,Fort Collins,CO,80524,303/484-8102,5,823.39,40.5811,105.0791
S3615,South & Inc.,Jack Gillett,1604 Taxing,Richland,WA,99352,509/375-1750,6,2483.9,46.2754,119.2683
S5620,South Solutions,Lawrence Daniels,3185 Union Archer,Jacksonville,FL,32207,904/398-3795,3,4064.82,30.3268,81.6674
S7930,South and Arlington,Don Freeland,407 Water Park Street,San Francisco,CA,94124,415/821-9357,6,1805.88,37.7894,122.4041
S0721,Spectrum Computer,Phil Jensen,56443 Pleasant Greenleaf,Bryan,TX,77802,409/822-8929,5,2639.24,30.6736,96.3688
S5974,Spectrum Joslyn Corporation,Andy Starks,18 W. Hwy. 67,Sherman Oaks,CA,91423,818/905-2842,6,2997.21,34.1502,118.4581
S1512,St Department Services,George Gold,43 Alhambra St,Miami,FL,33156,305/677-0585,3,1413.22,25.7211,80.2686
S8995,Star Acctg Consultants,Bob Straub,3335 East 6th Street,Rochester,NY,14617,716/342-0461,2,6265.05,43.1593,77.6208
S9152,Star Computerware,Henry Miley,4041 Main St,Newton Centre,MA,02159,617/965-8966,1,4071.75,42.3523,71.205
S3137,Star Films Systems,Shawn Younger,204 University Hines,Dallas,TX,75235,214/634-6646,5,1901.65,32.7815,96.7947
S2404,Star Foods Pertamina,Mary Hedgepath,881 North Street,Huntington Bch.,CA,92647,714/847-2924,6,3941.4,33.664,117.997
S6381,Steelman Assoc,Karl Taylor,170 University Information,Lake Worth,FL,33460,305/793-0727,3,2186.85,26.6156,80.0572
S1976,Stephen Forum,Homer Roudebush,2139 N 101st,Royal Palm Bch.,FL,33411,305/798-7130,3,4161.34,26.6534,80.2391
S8327,Steven Computers,Scott Sanderson,10 N. Main Pathology Building,Huntsville,AL,35802,205/881-2245,3,2244.58,34.7329,86.5926
S6125,Steven Ripoint,Len Harrell,8111 North Ave,Elk Grove Vilge,IL,60607,312/952-8817,4,2475.58,41.8795,87.6398
S5102,Steven Software Solutions,Kenneth C. Bokoros,6 Dumont Trail,Columbus,OH,43207,614/445-1107,4,3638.58,39.9681,83.0051
S7284,Summit & Associates,Parky Weir,5526 72nd Gianni,Bloomingdale,IL,60108,312/529-1159,4,1627.77,41.9575,88.0808
S8192,Superior Silver Oxford,Ed Matti,2483 Candace Drive,San Gabriel,CA,91776,818/285-4873,6,7822.41,34.089,118.1231
S0648,Sweet County,Ralph Murrow,280 Hale Ave,Antioch,CA,94509,415/439-3581,6,1757.96,38.0224,121.8822
S2624,Sweet Services,Robin Crawford,15614 Digiulio,Minneapolis,MN,55411,612/521-5154,4,11707.61,44.968,93.1857
S7845,Sweet Systems Incorporated,Lenny Teicher,1949 South Bell,North Haven,CT,06473,203/239-5698,1,1212.7,41.3068,72.9231
S9738,System Business Machines Ltd,Dennis Haldeman,719 Shetland #113,Columbus,OH,43215,614/224-7820,4,6614.78,39.9681,83.0051
S2660,System Corp.,Charles Ring,733 Lilac Avenue,Yarmouth,ME,04096,207/846-9270,1,2005.71,43.802,70.1878
S0916,System County Medical Health Inc.,David Matti,20051 Silas Dean Road,Chardon,OH,44024,216/285-1201,4,5579.33,41.5839,81.2016
S6891,System Scholastic Press Software,Carol Stanger,16900 Wilbertin Avenue,Glenview,IL,60025,312/729-5546,4,7919.49,42.0697,87.7878
S4255,Systems Poetics and Polemics,Ron Hepworth,4747 E. South,Weehawken,NJ,07087,617/787-5155,2,7218.92,42.3469,71.1468
S3398,Systems & Software,Bob Putnam,1733 Common Street,Shawnee,OK,74801,405/275-0583,5,232.49,35.3307,96.9268
S4325,Systems Inc,Jamie Huang,15713 West 22nd Suite 22,Memphis,TN,38163,901/528-2840,3,471.99,35.1435,90.042
S5925,Systems Word,John Komerossky,4205 North Kirkman,S Pasadena,CA,91030,800/352-6886,6,4556.77,34.1142,118.1495
T9030,Times Computing,Jeffrey Wallrod,110 Wolf Box 3965,Richardson,TX,75080,214/231-2691,5,3431.27,32.9422,96.7239
T1922,Time & Fate Weavers,Pat Hilley,8260 Palisades Circle Essex,Bellevue,WA,98006,206/644-9266,6,4188.35,47.6077,122.2052
T5321,Tallman Dakota Division of Service,George Gubboney,206 Gilman,Washington,DC,20016,202/537-0043,2,44.5,38.9005,77.0311
T0997,Taulor Brown,Al Haines,1600 Douglas St,El Paso,TX,79912,915/581-4146,5,4207.07,31.7539,106.4841
T0123,Taulor Co.,Alan Morrison,34 Heatherfield #103,Sausalito,CA,94965,415/332-6248,6,4016.61,37.8593,122.4818
T8477,Taulor Resource Gaffer,Larry Tutino,1185 Bissonnet Ct,Los Angeles,CA,90019,213/734-2491,6,1353.81,34.0495,118.248
T2627,Technical Custom Software Weaver,Ray Johnson,17 Bear Creek St,Mendenhall,MS,39114,601/847-4703,3,372.64,31.9678,89.8757
T6314,Term-Building Inc,Jeff Byron,1852 Ocean,Oshkosh,WI,54901,414/236-3395,4,5172.39,44.0148,88.5365
T1988,The Automated Associates,Ann Casey,816 S Avenue,Dallas,TX,75235,214/631-8458,5,984.71,32.7815,96.7947
T3097,The Biggs PC,Mike Arianna,3335 S. 14th,Sterling,CO,80751,303/522-8672,5,4671.34,40.6338,103.2119
T8777,The Blake Optometric Junta,Michael Zach,199 South Main Street,Lewiston,ME,04240,207/784-3010,1,947.43,44.0966,70.214
T6622,The C. Point Telephone County,Alan F Meeks,418 S. Stoneman Ave. English,Chicago,IL,60618,312/782-4152,4,2574.79,41.8839,87.6371
T2225,The CSP Rumberg & Inc.,Irving Aston,11632 E Court,Holyoke,MA,01040,203/521-1756,1,4746.53,41.7674,72.6776
T7106,The Circle Distributing Shop,James St. James,1704 C Street,Albany,NY,12212,518/869-8738,2,1858.88,42.7437,73.8101
T6626,The Gordon & Gordon Mert Company A,Jimmy Pendleton,101 Tilden Kuroda,San Jose,CA,95128,408/275-8251,6,2602.13,37.3317,121.8871
T2253,The Information Service Feeders,Frank Wigal,375 Manida Cornwallus,Cape Girardeau,MO,63701,314/334-0896,4,2726.26,37.2991,89.5264
T2235,The Taulman Insurance Group,Robert Kmickle,11 Teakwood Street,Coconut Creek,FL,33063,305/975-5044,3,129.22,26.2347,80.1183
T7683,Thompson Associates Inc.,Ted Crowe,3006 Christine #101,Miami,FL,33168,305/895-7777,3,1047.79,25.7727,80.1904
T6853,Thompson Equipment,James Jenkins,2120 Shetland Road,Greensboro,NC,27408,919/373-9598,3,7463.25,36.0763,79.7801
T3237,Thompson Howland,John Hirshland,151 Water Park Drive,Jacksonville,FL,32210,904/772-9423,3,2290.07,30.3268,81.6674
T7068,Thralls Corp.,Bob Brown,4206 S Stoughton Circle,Wilkes Barre,PA,18702,717/826-1267,2,778.77,41.2433,75.8859
T8136,Thralls Senski,John Matthewes,109 Colbreggan Street,TEMPE,AZ,85282,602/894-9367,5,1419.2,33.4163,111.9295
T0970,Tokyo Bars & Senski Reamers,Phil Egley,7677 Los Angeles Street #l,Burlingame,CA,94010,415/340-5962,6,3999.23,37.5744,122.341
T1401,Torey L. Bogg Inc,Jim Bellomy,23 P. Bandywood Street,Central Islip,NY,11722,516/582-3883,2,1204.44,40.7928,73.1984
T0239,Torey Schenker,Drew Griffin,23 Clinical Bayshore Blvd E,S. Hampton,NY,11968,516/283-6041,2,3174.9,40.883,72.3896
T9041,Town Computer Systems,M Kirby Lee,2125 E Clinton Way,Mainville,OH,45039,513/677-7780,4,5779.89,39.2691,84.2634
T6890,Town Inc.,S. Pfeil,909 North 1st,Concord,NC,28025,704/782-4112,3,923.81,35.3955,80.5839
T1847,Tri-8 Data Data-Corp,Paul Hedgepath,103 Voice Box 3965,Bethlehem,PA,18018,215/868-7225,2,11606.18,40.6102,75.3827
T1800,Tri-3 Latent Software,Jeff Lund,Dan Olive 10th St,New York,NY,10017,212/689-2370,2,2436.06,40.7413,73.9895
T7915,Tri-Chem Systems,Charlie Dobos,2401 Swinton Paige,Los Altos,CA,94022,415/941-2488,6,1294.85,37.3819,122.1106
T6575,Triad Resort Computers,Frank Kieckheser,128 S. Stoneman Ave. Broadway,Springfield,PA,19064,215/328-8070,2,9178.26,39.9043,75.3509
T7725,Triad Systems,Marion Albright,1300 E. Suite,Monmouth,IL,61462,309/734-6280,4,5469.52,40.909,90.6471
T0440,True Computer,Bill Olsen,902 Danbury Avenue,Walnut Creek,CA,94596,415/943-0436,6,887.37,37.8993,122.0572
T7565,True DSSD,Bill Griffin,6110 Mt. Diablo Road,Hauppauge,NY,11788,516/231-5288,2,3324.87,40.7786,73.2435
T7785,Turville Inc.,Jeff Smith,211 Belle,New York,NY,10027,212/280-6641,2,2235.96,40.7413,73.9895
U4698,Unger Haven Moving Corp.,Thomas Flood,11530 W. 95th Street,North Hollywood,CA,91601,818/769-9172,6,307.48,34.1671,118.3711
U2905,Union Systems,David Thomas,30523 Terrace,Brea,CA,92621,213/690-8094,6,129.35,33.9364,117.9522
U5774,Univ Diego Corp,Dave Mccarthy,23433 Park,Foster City,CA,94404,415/573-5167,6,1978.21,37.5744,122.341
U4481,Univ System Computerware,Harry Hill,145 Wilson,Emeryville,CA,94608,415/428-5918,6,3681.48,37.8058,122.2623
U4019,Upjohn Associates,Dee Nichols,3700 Olive 10th floor,Memphis,TN,38103,901/522-8208,3,2436.28,35.1435,90.042
U6506,Upjohn Factory,Kevin Maslowski,3205 34th Ave,Salt Lake City,UT,84106,801/487-7866,5,12485.77,40.7571,111.8805
U1488,Us County,William Stubbings,135 Dallas Street,Roslyn,NY,11576,516/365-0761,2,2529.36,40.8134,73.7042
U2899,Us Drywall,George D Roepe,3530 Industrial Way Street,Fremont,CA,94536,415/793-6161,6,596.32,37.5569,122.0073
V5608,V. E. Optometric,Dennis Branch,345 Vincent St Marks 20,Miami,FL,33130,305/854-1758,3,11742.0,25.7727,80.1904
V3016,VHC Computer Ltd.,Cindy Paretta,705 O'brien 70,Santa Barbara,CA,93101,805/963-1725,6,1798.18,34.4168,119.698
V5142,VHC Systems,Bob Sanders,5050 Chapel Unit,Myrtle Beach,SC,29577,803/448-6351,3,2328.28,33.6945,78.887
V2821,Valcom Arts Consultants,Richard Wanger,468 Charles St,Houston,TX,77027,713/622-0170,5,4977.82,29.7503,95.3662
V5053,Valcom Housing Computers,John Schitt,199 E. Drive,Santa Monica,CA,90401,213/573-1492,6,1447.52,33.9972,118.4198
V4710,Vaultec Studies,Ken Bott,1/2 West St,Marion,OH,43302,614/382-9499,4,11174.7,40.5868,83.1373
V3307,Vector Computer Inc.,Dave Wong,321 Nw Central Dr,St Louis,MO,63146,314/434-7685,4,546.15,38.6644,90.4527
V6095,Vector Thomas Corp,Doug Wright,5949 Little John Street,New York,NY,10011,212/929-1022,2,11448.8,40.7413,73.9895
V0926,Vertisoft Micros,William Stanger,1549 East 42nd Street,McLean,VA,22101,703/734-7728,3,3051.89,38.8921,77.1603
W5859,Waid Silver Furniture,Randy Kenes,75 Third Avenue,Victorville,CA,92392,619/245-1932,6,228.7,34.5286,117.2982
W0284,Walker Business Gallery,Bob Vogeltanz,4617 Gardina Ave,Opelika,AL,36801,205/749-9081,3,10297.9,32.6422,85.3867
W6916,Wazoo Data Ltd,Billy Tillotson,1873 E 44th,Rochester,NY,14621,716/342-0653,2,1707.14,43.1593,77.6208
W1338,Wazoo Survey Group,Barbara Diaddigo,156 Main Seward,Santa Cruz,CA,95062,408/475-0584,6,623.02,36.9723,122.0206
W5434,Weichert Compuserve,Gary Cumming,418 Telecommunications Dr,Victoria,BC,V8W 1,604/381-2591,6,2200.21,48.4077,123.3513
W1833,West Leasing,Nancy Mcgee,3530 81st Street,Shreveport,LA,71104,318/227-3153,4,926.39,32.5084,93.7565
W0900,Western Fir-Tech,Rick Ellis,1 Dersh N.W. 6th Turnpike,Rockwall,TX,75087,214/475-4417,5,304.38,32.9361,96.5328
W1113,Western Marketing Inc,Pete Giuffrida,6601 Elf Suite 3,New York,NY,10023,718/387-8804,2,1847.03,40.7413,73.9895
W9317,Western Multisystems,Larry O'halloran,1307 Olive,Lafayette,NJ,07848,201/383-1373,2,1939.07,41.0584,74.7585
W8663,Western Pearl Corporation,Brian Boyer,2416 Biggs Hwy 2,Hollywood,FL,33121,305/963-0973,3,514.41,26.0104,80.1477
W2501,Western Publishing Workshop,James Ramers,2239 Sunset #14,New York,NY,10026,212/662-1911,2,883.07,40.7413,73.9895
W3522,Western Works,John Gilbert,2706 Mulberry Street,Del Rio,TX,78840,512/775-9635,5,11230.25,29.3584,100.9021
W2798,White Truck Brown,John Weiss,226 View Ridge Idlewood,Bergenfield,NJ,07621,201/384-4264,2,155.94,40.9457,73.9977
W9866,Wick of Wisconsin Consultants,David Jaeger,228 East 6th Street,Santa Clara,CA,95050,408/988-5185,6,933.87,37.3317,121.8871
W2782,William High Information Dorward,Casimiro B. Bryant,15713 Bitter Alexander,Asheville,NC,28806,704/258-1637,3,8247.93,35.5924,82.5622
W2948,William Pearl Equipment,Jamie Crawford,17 Gatehouse Rd Rm Brandywinne,Lubbock,TX,79410,806/795-7827,5,3149.36,33.5821,101.8535
W6625,William Savings & CRT Stable,Dilip Roach,109 Lookout #300,San Jose,CA,95127,408/258-6866,6,1560.05,37.3317,121.8871
W8929,Wilson Solutions,Gene Smith,226 East Water Avenue,New York,NY,10020,212/575-3851,2,3752.64,40.7413,73.9895
W2074,Wright L. Tither & Sons.,Edmund Fassmann,1221 Box Street,Columbus,OH,43229,614/895-8647,4,729.53,40.1253,82.9385
Y7412,Yellow Ridge Management,Sid Searpella,1324 Bardera Place,Wayne,PA,19087,215/328-8683,2,4302.9,39.9043,75.3509
Y2416,Yegen Inc.,John Crawford,4650 Eubank Blvd. N.,Essex Junction,VT,05452,802/769-3126,1,1496.42,44.4931,73.1095
Y7497,Yergen Endeavors,Tom Droege,922 Firestone Street,Bethel,AK,99559,907/543-3784,6,14820.12,60.7998,161.7459
Z4570,Zitporah Reductions,Rich Cast,3263 Broadway,Bradenton,FL,33507,813/753-0439,3,882.39,27.4917,82.5688
Z2361,Znanie Inc.,Lynn Deleon,241 North 1st,Syracuse,NY,13202,315/475-2851,2,65.09,43.0489,76.1539
